[
    {
      "id": 1,
      "name": "Adana",
      "latitude": "37.0000",
      "longitude": "35.3213",
      "population": 2183167,
      "region": "Akdeniz",
      "area":13844,
      "info": "Adana, Türkiye'nin bir ili ve en kalabalık altıncı şehridir. 2019 yılı verilerine göre 2.258.718 nüfusa sahiptir. Türkiye'deki altıncı büyük metropolitan alan olup ülkenin önde gelen bir tarım, ticaret ve kültür merkezidir. Türkiye'deki maden zengini 4. bölge olan Adana; krom, demir, manganez, kurşun ve çinko yatakları açısından önem taşımaktadır. Adana'nın merkezi; Mersin, Adana, Osmaniye ve Hatay illerini kapsayan coğrafi, ekonomik ve kültürel bir bölge olan Çukurova'nın merkezinde bulunur. Yaklaşık 6,33 milyon insana ev sahipliği yapan bölgenin büyük bir bölümü, tarıma oldukça elverişli, geniş ve düz bir arazidir. "
    },
    {
      "id": 2,
      "name": "Adıyaman",
      "latitude": "37.7648",
      "longitude": "38.2786",
      "population": 602774,
      "region": "Güneydoğu Anadolu",
      "area": 7337,
      "info": "Adıyaman, Türkiye'nin Güneydoğu Anadolu Bölgesinde bulunan bir ilidir. İdari merkezi Adıyaman şehridir. 2020 yılında TÜİK verilerine göre merkez ilçeyle beraber 9 İlçe, 23 belediye, bu belediyelerde 173 mahalle ve ayrıca 453 köyü vardır. "
    },
    {
      "id": 3,
      "name": "Afyonkarahisar",
      "latitude": "38.7507",
      "longitude": "30.5567",
      "population": 709015,
      "region": "Ege",
      "area": 1025,
      "info": "Afyonkarahisar, Ege Bölgesi ve İç Batı Anadolu Bölümünde yer alan bir ildir. 2020 yılı verilerine göre ilde; Afyonkarahisar merkez ilçesi ile beraber 18 ilçe, 60 belediye ve 422 köy vardır."
    },
    {
      "id": 4,
      "name": "Ağrı",
      "latitude": "39.7191",
      "longitude": "43.0503",
      "population": 547210,
      "region": "Doğu Anadolu",
      "area": 14927,
      "info": "Ağrı (eski ismi: Karaköse), Türkiye'nin Doğu Anadolu Bölgesi'nde bulunan şehir ve Ağrı ilinin merkez ilçesi. Ayrıca tarihte birden fazla isim değişikliği yaşamıştır.Karakilise, Ararat, Karaköse ve son olarak Ağrı Dağı'ndan esinlenilerek Ağrı ismi verilmiştir. Bu şehrin rakımı 1.632 m'dir. Ağrı Ovası'nın kuzeyinde kurulmuştur. Çok soğuk bir iklimi olup ormanlık alanı azdır. Halkın büyük çoğunluğu tarım ve hayvancılıkla uğraşmaktadır. 15 Nisan \"İşgalden Kurtuluş Günü\" olarak kutlanır."
    },
    {
      "id": 5,
      "name": "Amasya",
      "latitude": "40.6499",
      "longitude": "35.8353",
      "population": 322167,
      "region": "Karadeniz",
      "area": 1729 ,
      "info": "Amasya, Türkiye'nin Karadeniz Bölgesi'nde bulunan bir ildir. Merkez ilçesi Amasya'dır. Bölümü Orta Karadeniz'dir. 2018 yılında TÜİK verilerine göre merkez ilçeyle beraber 7 İlçe, 8 belediye, bu belediyelerde 107 mahalle ve ayrıca 372 köyü vardır. Amasya'nın bilinen ilk adı \"Amaseia\"'dır. Bu isim dünyanın ilk coğrafyacısı olarak bilenen Strabon tarafından verilmiştir. \"Amaseia\" amozonlardaki yaşayan halkın kraliçelerine verdikleri isimdir. "
    },
    {
      "id": 6,
      "name": "Ankara",
      "latitude": "39.9208",
      "longitude": "32.8541",
      "population": 5663322,
      "region": "İç Anadolu",
      "area": 25632,
      "info": "Ankara, Türkiye'nin başkenti ve en kalabalık ikinci ilidir. Nüfuslarına göre şehirler listesinde belediye sınırları göz önüne alınarak yapılan sıralamaya göre dünyada ise elli yedinci sırada yer almaktadır. Coğrafi olarak Türkiye'nin merkezine yakın bir konumda bulunur ve Batı Karadeniz Bölgesi'nde kalan kuzey kesimleri hariç, büyük bölümü İç Anadolu Bölgesi'nde yer alır. Yüz ölçümü olarak ülkenin üçüncü büyük ilidir. Bolu, Çankırı, Kırıkkale, Kırşehir, Aksaray, Konya ve Eskişehir illeri ile çevrilidir. "
    },
    {
      "id": 7,
      "name": "Antalya",
      "latitude": "36.8841",
      "longitude": "30.7056",
      "population": 2288456,
      "region": "Akdeniz",
      "area": 20909,
      "info": "Antalya, Türkiye'nin bir ili ve en kalabalık beşinci şehridir. 2020 sonu itibarıyla il nüfusu 2.548.308'dır.[3] Türkiye'de \"turizmin başkenti\" olarak görülmektedir. Tamamı Akdeniz Bölgesi'nin batısında yer alır ve Antalya Körfezi'yle Batı Torosların arasında kurulmuştur. Yüz ölçümü bakımından Türkiye'nin beşinci büyük ilidir. Güneyinde Akdeniz, batısında Muğla, kuzeyinde Burdur ve Isparta, kuzeydoğusunda Konya, doğusunda ise Karaman ve Mersin illeri vardır. Antalya şehri, 1980 yılından sonra uygun iklim koşulları ve turizm etkinlikleri nedeniyle hızla gelişmiş ve buna paralel olarak il de günümüzde Türkiye'nin en kalabalık beşinci ili olmuştur. Antalya'da ekonomik hayat büyük oranda ticaret, tarım ve turizme dayalıdır. "
    },
    {
      "id": 8,
      "name": "Artvin",
      "latitude": "41.1828",
      "longitude": "41.8183",
      "population": 168370,
      "region": "Karadeniz",
      "area": 1141,
      "info": "Artvin, Orta Çağ'da Gürcistan'ın bölgelerinden biri olan Klarceti'deki yerleşmelerden biriydi. Önemli yolların geçtiği bir kavşakta yer alıyordu. Bir yandan Erzurum, Bayburt, Ardahan ve Ardanuç'a, diğer yandan Batum ve Hopa'ya açılıyordu. Şehir ayrıca Çoruh Havzası'nda Artvin ile Batum arasındaki su yoluyla taşımacılığın iskelelerinden biriydi. "
    },
    {
      "id": 9,
      "name": "Aydın",
      "latitude": "37.8560",
      "longitude": "27.8416",
      "population": 1053506,
      "region": "Ege",
      "area": 8117,
      "info": "Aydın, Türkiye'nin bir ili ve en kalabalık yirminci şehridir. Ege Bölgesi'nde yer alan, turizm ve tarım açısından en gelişmiş illerdendir. Kuzeyinde İzmir, kuzeydoğusunda Manisa, doğusunda Denizli, güneyinde Muğla illeri, batısında Ege Denizi bulunmaktadır. 2019 itibarıyla 1.110.972 kişilik nüfusuyla Ege Bölgesi'nin üçüncü büyük ilidir. On yedi ilçesi vardır. "
    },
    {
      "id": 10,
      "name": "Balıkesir",
      "latitude": "39.6484",
      "longitude": "27.8826",
      "population": 1186688,
      "region": "Ege",
      "area": 14272,
      "info": "Balıkesir, Türkiye'nin bir ili ve en kalabalık on yedinci şehri. Marmara Bölgesi'nin Güney Marmara Bölümü'nde, topraklarının bir kısmı ise Ege Bölgesi'nde yer alan ilin hem Marmara hem de Ege Denizi'ne kıyısı bulunur. Türkiye genelinde ise iki deniz ile komşu olan sadece 6 il vardır.[4] İl, Kuzeybatı Anadolu'da bulunmaktadır. Doğusunda Bursa ve Kütahya illeri, güneyinde Manisa ve İzmir illeri ve batısında Çanakkale ili vardır.[5] Ayvalık ilçesinden de Yunanistan'ın Midilli Adası'na komşudur."
    },
    {
      "id": 11,
      "name": "Bilecik",
      "latitude": "40.0567",
      "longitude": "30.0665",
      "population": 212361,
      "region": "Marmara",
      "area": 4307,
      "info": "Bilecik, Bilecik ilinin merkezi olan ilçedir. Türkiye'nin Marmara Bölgesi'nin Güney Marmara Bölümü'nde kalmaktadır. "
    },
    {
      "id": 12,
      "name": "Bingöl",
      "latitude": "39.0626",
      "longitude": "40.7696",
      "population": 267184,
      "region": "Doğu Anadolu",
      "area": 8125
    },
    {
      "id": 13,
      "name": "Bitlis",
      "latitude": "38.3938",
      "longitude": "42.1232",
      "population": 267184,
      "region": "Doğu Anadolu",
      "area": 6707
    },
    {
      "id": 14,
      "name": "Bolu",
      "latitude": "40.5760",
      "longitude": "31.5788",
      "population": 291095,
      "region": "Karadeniz",
      "area": 1524
    },
    {
      "id": 15,
      "name": "Burdur",
      "latitude": "37.4613",
      "longitude": "30.0665",
      "population": 258339,
      "region": "Akdeniz",
      "area": 6887
    },
    {
      "id": 16,
      "name": "Bursa",
      "latitude": "40.2669",
      "longitude": "29.0634",
      "population": 2842547,
      "region": "Marmara",
      "area": 1036
    },
    {
      "id": 17,
      "name": "Çanakkale",
      "latitude": "40.1553",
      "longitude": "26.4142",
      "population": 513341,
      "region": "Marmara",
      "area": 9737
    },
    {
      "id": 18,
      "name": "Çankırı",
      "latitude": "40.6013",
      "longitude": "33.6134",
      "population": 180945,
      "region": "İç Anadolu",
      "area": 1347
    },
    {
      "id": 19,
      "name": "Çorum",
      "latitude": "40.5506",
      "longitude": "34.9556",
      "population": 525180,
      "region": "Karadeniz",
      "area": 12820
    },
    {
      "id": 20,
      "name": "Denizli",
      "latitude": "37.7765",
      "longitude": "29.0864",
      "population": 993442,
      "region": "Ege",
      "area": 12321
    },
    {
      "id": 21,
      "name": "Diyarbakır",
      "latitude": "37.9144",
      "longitude": "40.2306",
      "population": 1654196,
      "region": "Güneydoğu Anadolu",
      "area": 15355
    },
    {
      "id": 22,
      "name": "Edirne",
      "latitude": "41.6818",
      "longitude": "26.5623",
      "population": 180327,
      "region": "Marmara",
      "area": 844
    },
    {
      "id": 23,
      "name": "Elâzığ",
      "latitude": "38.6810",
      "longitude": "39.2264",
      "population": 574304,
      "region": "Doğu Anadolu",
      "area": 8455
    },
    {
      "id": 24,
      "name": "Erzincan",
      "latitude": "39.7500",
      "longitude": "39.5000",
      "population": 222918,
      "region": "Doğu Anadolu",
      "area": 11974
    },
    {
      "id": 25,
      "name": "Erzurum",
      "latitude": "39.9000",
      "longitude": "41.2700",
      "population": 762321,
      "region": "Doğu Anadolu",
      "area": 25066 
    },
    {
      "id": 26,
      "name": "Eskişehir",
      "latitude": "39.7767",
      "longitude": "30.5206",
      "population": 826716,
      "region": "İç Anadolu",
      "area": 2678
    },
    {
      "id": 27,
      "name": "Gaziantep",
      "latitude": "37.0662",
      "longitude": "37.3833",
      "population": 1931836,
      "region": "Güneydoğu Anadolu",
      "area": 6819
    },
    {
      "id": 28,
      "name": "Giresun",
      "latitude": "40.9128",
      "longitude": "38.3895",
      "population": 426686,
      "region": "Karadeniz",
      "area": 317
    },
    {
      "id": 29,
      "name": "Gümüşhane",
      "latitude": "40.4386",
      "longitude": "39.5086",
      "population": 151449,
      "region": "Karadeniz",
      "area": 1789
    },
    {
      "id": 30,
      "name": "Hakkâri",
      "latitude": "37.5833",
      "longitude": "43.7333",
      "population": 278775,
      "region": "Doğu Anadolu",
      "area": 2237
    },
    {
      "id": 31,
      "name": "Hatay",
      "latitude": "36.4018",
      "longitude": "36.3498",
      "population": 1533507,
      "region": "Akdeniz",
      "area": 5403
    },
    {
      "id": 32,
      "name": "Isparta",
      "latitude": "37.7648",
      "longitude": "30.5566",
      "population": 421766,
      "region": "Akdeniz",
      "area": 8993
    },
    {
      "id": 33,
      "name": "Mersin",
      "latitude": "36.8000",
      "longitude": "34.6333",
      "population": 1745221,
      "region": "Akdeniz",
      "area": 1585
    },
    {
      "id": 34,
      "name": "İstanbul",
      "latitude": "41.0053",
      "longitude": "28.9770",
      "population": 14657434,
      "region": "Marmara",
      "area": 5343
    },
    {
      "id": 35,
      "name": "İzmir",
      "latitude": "38.4189",
      "longitude": "27.1287",
      "population": 4168415,
      "region": "Ege",
      "area": 11891
    },
    {
      "id": 36,
      "name": "Kars",
      "latitude": "40.6167",
      "longitude": "43.1000",
      "population": 292660,
      "region": "Doğu Anadolu",
      "area": 9587
    },
    {
      "id": 37,
      "name": "Kastamonu",
      "latitude": "41.3887",
      "longitude": "33.7827",
      "population": 372633,
      "region": "Karadeniz",
      "area": 13108
    },
    {
      "id": 38,
      "name": "Kayseri",
      "latitude": "38.7312",
      "longitude": "35.4787",
      "population": 1341056,
      "region": "İç Anadolu",
      "area": 16969
    },
    {
      "id": 39,
      "name": "Kırklareli",
      "latitude": "41.7333",
      "longitude": "27.2167",
      "population": 346973,
      "region": "Marmara",
      "area": 1.525
    },
    {
      "id": 40,
      "name": "Kırşehir",
      "latitude": "39.1425",
      "longitude": "34.1709",
      "population": 225562,
      "region": "İç Anadolu",
      "area": 6.570
    },
    {
      "id": 41,
      "name": "Kocaeli",
      "latitude": "40.8533",
      "longitude": "29.8815",
      "population": 1780055,
      "region": "Marmara",
      "area": 3.397
    },
    {
      "id": 42,
      "name": "Konya",
      "latitude": "37.8667",
      "longitude": "32.4833",
      "population": 2130544,
      "region": "İç Anadolu",
      "area": 40841
    },
    {
      "id": 43,
      "name": "Kütahya",
      "latitude": "39.4167",
      "longitude": "29.9833",
      "population": 571463,
      "region": "Ege",
      "area": 11634
    },
    {
      "id": 44,
      "name": "Malatya",
      "latitude": "38.3552",
      "longitude": "38.3095",
      "population": 772904,
      "region": "Doğu Anadolu",
      "area": 12259
    },
    {
      "id": 45,
      "name": "Manisa",
      "latitude": "38.6191",
      "longitude": "27.4289",
      "population": 1380366,
      "region": "Ege",
      "area": 13.339
    },
    {
      "id": 46,
      "name": "Kahramanmaraş",
      "latitude": "37.5858",
      "longitude": "36.9371",
      "population": 1096610,
      "region": "Akdeniz",
      "area": 14519 
    },
    {
      "id": 47,
      "name": "Mardin",
      "latitude": "37.3212",
      "longitude": "40.7245",
      "population": 796591,
      "region": "Güneydoğu Anadolu",
      "area": 8779
    },
    {
      "id": 48,
      "name": "Muğla",
      "latitude": "37.2153",
      "longitude": "28.3636",
      "population": 908877,
      "region": "Ege",
      "area": 12.655 
    },
    {
      "id": 49,
      "name": "Muş",
      "latitude": "38.9462",
      "longitude": "41.7539",
      "population": 408728,
      "region": "Doğu Anadolu",
      "area": 2604
    },
    {
      "id": 50,
      "name": "Nevşehir",
      "latitude": "38.6939",
      "longitude": "34.6857",
      "population": 286767,
      "region": "İç Anadolu",
      "area": 5467
    },
    {
      "id": 51,
      "name": "Niğde",
      "latitude": "37.9667",
      "longitude": "34.6833",
      "population": 346114,
      "region": "İç Anadolu",
      "area": 2303
    },
    {
      "id": 52,
      "name": "Ordu",
      "latitude": "40.9839",
      "longitude": "37.8764",
      "population": 728949,
      "region": "Karadeniz",
      "area": 303.6
    },
    {
      "id": 53,
      "name": "Rize",
      "latitude": "41.0201",
      "longitude": "40.5234",
      "population": 328979,
      "region": "Karadeniz",
      "area": 3920
    },
    {
      "id": 54,
      "name": "Sakarya",
      "latitude": "40.6940",
      "longitude": "30.4358",
      "population": 953181,
      "region": "Marmara",
      "area": 4823
    },
    {
      "id": 55,
      "name": "Samsun",
      "latitude": "41.2928",
      "longitude": "36.3313",
      "population": 1279884,
      "region": "Karadeniz",
      "area": 1055
    },
    {
      "id": 56,
      "name": "Siirt",
      "latitude": "37.9333",
      "longitude": "41.9500",
      "population": 320351,
      "region": "Güneydoğu Anadolu",
      "area": 284
    },
    {
      "id": 57,
      "name": "Sinop",
      "latitude": "42.0231",
      "longitude": "35.1531",
      "population": 204133,
      "region": "Karadeniz",
      "area": 5862
    },
    {
      "id": 58,
      "name": "Sivas",
      "latitude": "39.7477",
      "longitude": "37.0179",
      "population": 618617,
      "region": "İç Anadolu",
      "area": 2768
    },
    {
      "id": 59,
      "name": "Tekirdağ",
      "latitude": "40.9833",
      "longitude": "27.5167",
      "population": 937910,
      "region": "Marmara",
      "area": 1112
    },
    {
      "id": 60,
      "name": "Tokat",
      "latitude": "40.3167",
      "longitude": "36.5500",
      "population": 593990,
      "region": "Karadeniz",
      "area": 1923
    },
    {
      "id": 61,
      "name": "Trabzon",
      "latitude": "41.0015",
      "longitude": "39.7178",
      "population": 768417,
      "region": "Karadeniz",
      "area": 4685
    },
    {
      "id": 62,
      "name": "Tunceli",
      "latitude": "39.3074",
      "longitude": "39.4388",
      "population": 86076,
      "region": "Doğu Anadolu",
      "area": 882
    },
    {
      "id": 63,
      "name": "Şanlıurfa",
      "latitude": "37.1591",
      "longitude": "38.7969",
      "population": 1892320,
      "region": "Güneydoğu Anadolu",
      "area": 18584
    },
    {
      "id": 64,
      "name": "Uşak",
      "latitude": "38.6823",
      "longitude": "29.4082",
      "population": 353048,
      "region": "Ege",
      "area": 5341
    },
    {
      "id": 65,
      "name": "Van",
      "latitude": "38.4891",
      "longitude": "43.4089",
      "population": 1096397,
      "region": "Doğu Anadolu",
      "area": 19069 
    },
    {
      "id": 66,
      "name": "Yozgat",
      "latitude": "39.8181",
      "longitude": "34.8147",
      "population": 419440,
      "region": "İç Anadolu",
      "area": 2054
    },
    {
      "id": 67,
      "name": "Zonguldak",
      "latitude": "41.4564",
      "longitude": "31.7987",
      "population": 595907,
      "region": "Karadeniz",
      "area": 3306
    },
    {
      "id": 68,
      "name": "Aksaray",
      "latitude": "38.3687",
      "longitude": "34.0370",
      "population": 386514,
      "region": "İç Anadolu",
      "area": 4589
    },
    {
      "id": 69,
      "name": "Bayburt",
      "latitude": "40.2552",
      "longitude": "40.2249",
      "population": 78550,
      "region": "Karadeniz",
      "area": 2705
    },
    {
      "id": 70,
      "name": "Karaman",
      "latitude": "37.1759",
      "longitude": "33.2287",
      "population": 242196,
      "region": "İç Anadolu",
      "area": 3686
    },
    {
      "id": 71,
      "name": "Kırıkkale",
      "latitude": "39.8468",
      "longitude": "33.5153",
      "population": 270271,
      "region": "İç Anadolu",
      "area": 318
    },
    {
      "id": 72,
      "name": "Batman",
      "latitude": "37.8812",
      "longitude": "41.1351",
      "population": 566633,
      "region": "Güneydoğu Anadolu",
      "area": 4649
    },
    {
      "id": 73,
      "name": "Şırnak",
      "latitude": "37.4187",
      "longitude": "42.4918",
      "population": 490184,
      "region": "Güneydoğu Anadolu",
      "area": 1864
    },
    {
      "id": 74,
      "name": "Bartın",
      "latitude": "41.5811",
      "longitude": "32.4610",
      "population": 190708,
      "region": "Karadeniz",
      "area": 2120
    },
    {
      "id": 75,
      "name": "Ardahan",
      "latitude": "41.1105",
      "longitude": "42.7022",
      "population": 99265,
      "region": "Doğu Anadolu",
      "area": 5661
    },
    {
      "id": 76,
      "name": "Iğdır",
      "latitude": "39.8880",
      "longitude": "44.0048",
      "population": 192435,
      "region": "Doğu Anadolu",
      "area": 1479
    },
    {
      "id": 77,
      "name": "Yalova",
      "latitude": "40.6500",
      "longitude": "29.2667",
      "population": 233009,
      "region": "Marmara",
      "area": 167
    },
    {
      "id": 78,
      "name": "Karabük",
      "latitude": "41.2061",
      "longitude": "32.6204",
      "population": 236978,
      "region": "Karadeniz",
      "area": 760
    },
    {
      "id": 79,
      "name": "Kilis",
      "latitude": "36.7184",
      "longitude": "37.1212",
      "population": 130655,
      "region": "Güneydoğu Anadolu",
      "area": 1521
    },
    {
      "id": 80,
      "name": "Osmaniye",
      "latitude": "37.2130",
      "longitude": "36.1763",
      "population": 512873,
      "region": "Akdeniz",
      "area": 774
    },
    {
      "id": 81,
      "name": "Düzce",
      "latitude": "40.8438",
      "longitude": "31.1565",
      "population": 360388,
      "region": "Karadeniz",
      "area": 3641
    }
  ]